[
  {
    "name": "Naha Air & Naval Base",
    "location": {
      "lat": 26.1958,
      "lon": 127.6458
    },
    "current_cost": 0,
    "weapon_stock": {
      "F-35B": {
        "total": 12,
        "destroyed": 0,
        "active": 12
      },
      "Izumo-class Destroyer": {
        "total": 3,
        "destroyed": 0,
        "active": 3
      },
      "Oyashio-class Submarine": {
        "total": 6,
        "destroyed": 0,
        "active": 6
      }
    },
    "ammo_stock": {
      "LongRangeMissile": 500,
      "Torpedo": 200
    }
  },
  {
    "name": "Amami Forward Base",
    "location": {
      "lat": 28.3589,
      "lon": 129.4953
    },
    "current_cost": 0,
    "weapon_stock": {
      "Oyashio-class Submarine": {
        "total": 9,
        "destroyed": 0,
        "active": 9
      }
    },
    "ammo_stock": {
      "Torpedo": 150
    }
  },
  {
    "name": "Sasebo Naval Base",
    "location": {
      "lat": 33.1575,
      "lon": 129.7225
    },
    "current_cost": 1442000,
    "weapon_stock": {
      "Atago-class Aegis": {
        "total": 6,
        "destroyed": 6,
        "active": 0
      },
      "Izumo-class Destroyer": {
        "total": 2,
        "destroyed": 2,
        "active": 0
      },
      "Oyashio-class Submarine": {
        "total": 6,
        "destroyed": 6,
        "active": 0
      }
    },
    "ammo_stock": {
      "LongRangeMissile": 800,
      "Torpedo": 290
    }
  },
  {
    "name": "Kadena Air-Sea Hub (US)",
    "location": {
      "lat": 26.3589,
      "lon": 127.7681
    },
    "current_cost": 0,
    "weapon_stock": {
      "F-35B": {
        "total": 18,
        "destroyed": 0,
        "active": 18
      },
      "Atago-class Aegis": {
        "total": 3,
        "destroyed": 0,
        "active": 3
      }
    },
    "ammo_stock": {
      "LongRangeMissile": 1000
    }
  },
  {
    "name": "Kanoya Anti-Sub Base",
    "location": {
      "lat": 31.3667,
      "lon": 130.85
    },
    "current_cost": 0,
    "weapon_stock": {
      "Oyashio-class Submarine": {
        "total": 3,
        "destroyed": 0,
        "active": 3
      }
    },
    "ammo_stock": {
      "Torpedo": 250
    }
  }
]